[
    {
        "id": "1",
        "name": "North Transfer Station",
        "latitude": 47.6498,
        "longitude": -122.3419,
        "address": "1350 N 34th St, Seattle, WA 98103",
        "description": "Accepts a variety of recyclables including metals, plastics, and paper.",
        "materials": ["Metal", "Plastic", "Paper"],
        "county": "King",
        "city": "Seattle",
        "hours": "Mon-Sun: 8:00 AM - 5:30 PM",
        "contact": "(206) 263-8899",
        "website": "https://www.seattle.gov/utilities/your-services/collection-and-disposal/transfer-stations/north-station",
        "directions": "https://www.google.com/maps/dir/?api=1&destination=1350+N+34th+St,+Seattle,+WA+98103"
    },
    {
        "id": "2",
        "name": "South Transfer Station",
        "latitude": 47.5303,
        "longitude": -122.3308,
        "address": "130 S Kenyon St, Seattle, WA 98108",
        "description": "Offers recycling services for plastics, glass, and electronic waste.",
        "materials": ["Plastic", "Glass", "E-waste"],
        "county": "King",
        "city": "Seattle",
        "hours": "Mon-Sun: 8:00 AM - 5:30 PM",
        "contact": "(206) 684-8400",
        "website": "https://www.seattle.gov/utilities/your-services/collection-and-disposal/transfer-stations/south-station",
        "directions": "https://www.google.com/maps/dir/?api=1&destination=130+S+Kenyon+St,+Seattle,+WA+98108"
    },
    {
        "id": "3",
        "name": "North Seattle Hazardous Waste Disposal",
        "latitude": 47.7193,
        "longitude": -122.3419,
        "address": "12550 Stone Ave N, Seattle, WA 98133",
        "description": "Collection site for hazardous materials like chemicals, batteries, and paint.",
        "materials": ["Batteries", "Chemicals", "Paint"],
        "county": "King",
        "city": "Seattle",
        "hours": "Wed-Sat: 9:00 AM - 5:00 PM",
        "contact": "(206) 296-4692",
        "website": "https://www.hazwastehelp.org/",
        "directions": "https://www.google.com/maps/dir/?api=1&destination=12550+Stone+Ave+N,+Seattle,+WA+98133"
    },
    {
        "id": "4",
        "name": "Recology Store SoMa",
        "latitude": 47.5986,
        "longitude": -122.3327,
        "address": "117 S Main St, Seattle, WA 98104",
        "description": "Drop-off center for general recyclables, including cardboard and aluminum cans.",
        "materials": ["Cardboard", "Aluminum", "Plastic"],
        "county": "King",
        "city": "Seattle",
        "hours": "Mon-Sat: 10:00 AM - 6:00 PM",
        "contact": "(206) 859-6700",
        "website": "https://www.recology.com/store/soma/",
        "directions": "https://www.google.com/maps/dir/?api=1&destination=117+S+Main+St,+Seattle,+WA+98104"
    },
    {
        "id": "11",
        "name": "Lynnwood Recycling Center",
        "latitude": 47.8277,
        "longitude": -122.3051,
        "address": "5532 196th St SW, Lynnwood, WA 98036",
        "description": "Specializes in glass, metal, and general recycling services.",
        "materials": ["Glass", "Metal", "Plastic"],
        "county": "Snohomish",
        "city": "Lynnwood",
        "hours": "Mon-Fri: 8:00 AM - 5:00 PM; Sat: 9:00 AM - 3:00 PM",
        "contact": "(425) 778-0188",
        "website": "https://www.lynnwoodrecycling.com/",
        "directions": "https://www.google.com/maps/dir/?api=1&destination=5532+196th+St+SW,+Lynnwood,+WA+98036"
    },
    {
        "id": "12",
        "name": "Puyallup Recycle Center",
        "latitude": 47.1854,
        "longitude": -122.2929,
        "address": "425 E Pioneer Ave, Puyallup, WA 98372",
        "description": "Focuses on e-waste and textile recycling.",
        "materials": ["E-waste", "Textiles"],
        "county": "Pierce",
        "city": "Puyallup",
        "hours": "Tue-Sat: 9:00 AM - 5:00 PM",
        "contact": "(253) 864-4972",
        "website": "https://puyalluprecycling.org/",
        "directions": "https://www.google.com/maps/dir/?api=1&destination=425+E+Pioneer+Ave,+Puyallup,+WA+98372"
    },
    {
        "id": "13",
        "name": "Tacoma Recovery and Recycling",
        "latitude": 47.2529,
        "longitude": -122.4443,
        "address": "3510 S Mullen St, Tacoma, WA 98409",
        "description": "Offers full-service recycling for yard debris, glass, and appliances.",
        "materials": ["Yard Waste", "Glass", "Appliances"],
        "county": "Pierce",
        "city": "Tacoma",
        "hours": "Mon-Sun: 7:30 AM - 5:30 PM",
        "contact": "(253) 591-5418",
        "website": "https://tacomarecyclingcenter.org/",
        "directions": "https://www.google.com/maps/dir/?api=1&destination=3510+S+Mullen+St,+Tacoma,+WA+98409"
    },
    {
        "id": "14",
        "name": "Everett Hazardous Waste Collection",
        "latitude": 47.9784,
        "longitude": -122.2021,
        "address": "1018 33rd St, Everett, WA 98201",
        "description": "Handles hazardous waste like chemicals, electronics, and paint.",
        "materials": ["Chemicals", "Electronics", "Paint"],
        "county": "Snohomish",
        "city": "Everett",
        "hours": "Wed-Sat: 8:00 AM - 4:30 PM",
        "contact": "(425) 388-6050",
        "website": "https://www.everettwa.gov/hazardous-waste",
        "directions": "https://www.google.com/maps/dir/?api=1&destination=1018+33rd+St,+Everett,+WA+98201"
    },
    {
        "id": "15",
        "name": "Factoria Recycling & Transfer Station",
        "latitude": 47.5786,
        "longitude": -122.1496,
        "address": "13800 SE 32nd St, Bellevue, WA 98005",
        "description": "Provides recycling services, hazardous waste disposal, and garbage drop-off.",
        "materials": ["Metal", "Plastic", "E-waste", "Hazardous Waste"],
        "county": "King",
        "city": "Bellevue",
        "hours": "Mon-Fri: 6:30 AM - 4:00 PM; Sat-Sun: 8:30 AM - 5:30 PM",
        "contact": "(206) 477-4466",
        "website": "https://kingcounty.gov/factoria",
        "directions": "https://www.google.com/maps/dir/?api=1&destination=13800+SE+32nd+St,+Bellevue,+WA+98005"
    },
    {
        "id": "16",
        "name": "Shoreline Recycling & Transfer Station",
        "latitude": 47.7529,
        "longitude": -122.3302,
        "address": "2300 N 165th St, Shoreline, WA 98133",
        "description": "Accepts a variety of recyclables including yard debris, metal, and cardboard.",
        "materials": ["Yard Waste", "Metal", "Cardboard", "Plastic"],
        "county": "King",
        "city": "Shoreline",
        "hours": "Mon-Sun: 7:00 AM - 5:30 PM",
        "contact": "(206) 477-4466",
        "website": "https://kingcounty.gov/shoreline",
        "directions": "https://www.google.com/maps/dir/?api=1&destination=2300+N+165th+St,+Shoreline,+WA+98133"
    },
    {
        "id": "17",
        "name": "Cedar Falls Drop Box",
        "latitude": 47.448057,
        "longitude": -121.760634,
        "address": "16925 Cedar Falls Rd SE, North Bend, WA 98045",
        "description": "Accepts yard waste, including branches, brush, grass clippings, leaves, tree stumps, wood rounds, holiday trees, and weeds.",
        "materials": ["Yard Waste", "Branches", "Brush", "Grass Clippings", "Leaves", "Tree Stumps", "Wood Rounds", "Holiday Trees", "Weeds"],
        "county": "King",
        "city": "North Bend",
        "hours": "Mon, Wed, Fri, Sat & Sun: 9 a.m. â€“ 5 p.m. (closed Tue & Thu)",
        "contact": "(206) 477-4466",
        "website": "https://kingcounty.gov/en/dept/dnrp/waste-services/garbage-recycling-compost/solid-waste-facilities/cedar",
        "directions": "https://www.google.com/maps/dir/?api=1&destination=16925+Cedar+Falls+Rd+SE,+North+Bend,+WA+98045"
    }
    ,
    {
        "id": "18",
        "name": "Vashon Recycling & Transfer Station",
        "latitude": 47.4284,
        "longitude": -122.4634,
        "address": "18900 Westside Hwy SW, Vashon, WA 98070",
        "description": "Specializes in general recycling and hazardous waste disposal.",
        "materials": ["Metal", "Glass", "Hazardous Waste", "Plastic"],
        "county": "King",
        "city": "Vashon",
        "hours": "Tue-Sun: 9:00 AM - 5:00 PM",
        "contact": "(206) 477-4466",
        "website": "https://kingcounty.gov/vashon",
        "directions": "https://www.google.com/maps/dir/?api=1&destination=18900+Westside+Hwy+SW,+Vashon,+WA+98070"
    },
    {
        "id": "19",
        "name": "Enumclaw Recycling & Transfer Station",
        "latitude": 47.2046,
        "longitude": -122.0354,
        "address": "1650 Battersby Ave E, Enumclaw, WA 98022",
        "description": "Provides drop-off services for yard waste, cardboard, and household items.",
        "materials": ["Yard Waste", "Cardboard", "Household Items", "Glass"],
        "county": "King",
        "city": "Enumclaw",
        "hours": "Mon-Sun: 9:00 AM - 5:00 PM",
        "contact": "(206) 477-4466",
        "website": "https://kingcounty.gov/enumclaw",
        "directions": "https://www.google.com/maps/dir/?api=1&destination=1650+Battersby+Ave+E,+Enumclaw,+WA+98022"
    },
    {
        "id": "20",
        "name": "Murrey's Disposal Recycling Facility",
        "latitude": 47.2448,
        "longitude": -122.3592,
        "address": "402 Valley Ave NE, Puyallup, WA 98372",
        "description": "Offers collection, transfer, and recycling services for residential and commercial customers.",
        "materials": ["Metal", "Plastic", "Paper", "Yard Waste"],
        "county": "Pierce",
        "city": "Puyallup",
        "hours": "Mon-Fri: 8:00 AM - 5:00 PM",
        "contact": "(253) 414-0345",
        "website": "https://www.murreysdisposal.com/",
        "directions": "https://www.google.com/maps/dir/?api=1&destination=402+Valley+Ave+NE,+Puyallup,+WA+98372"
    },
    {
        "id": "21",
        "name": "Puget Sound Recycling",
        "latitude": 47.2483,
        "longitude": -122.4697,
        "address": "2225 112th St S, Tacoma, WA 98444",
        "description": "Specializes in metal recycling, accepting aluminum, brass, copper, scrap iron, and steel.",
        "materials": ["Aluminum", "Brass", "Copper", "Scrap Iron", "Steel"],
        "county": "Pierce",
        "city": "Tacoma",
        "hours": "Mon-Sat: 8:00 AM - 5:00 PM",
        "contact": "(253) 536-2260",
        "website": "https://www.psrecycling.com/",
        "directions": "https://www.google.com/maps/dir/?api=1&destination=2225+112th+St+S,+Tacoma,+WA+98444"
    },
    {
        "id": "22",
        "name": "Gilliardi Logging & Construction Recycling Facility",
        "latitude": 47.0417,
        "longitude": -122.8958,
        "address": "9305 Johnson Point Rd NE, Olympia, WA 98516",
        "description": "Recycles land clearing debris, including concrete, asphalt, rock, brush, and wood.",
        "materials": ["Concrete", "Asphalt", "Rock", "Brush", "Wood"],
        "county": "Thurston",
        "city": "Olympia",
        "hours": "Mon-Fri: 7:30 AM - 4:00 PM",
        "contact": "(360) 456-5274",
        "website": "https://www.gilliardi.com/",
        "directions": "https://www.google.com/maps/dir/?api=1&destination=9305+Johnson+Point+Rd+NE,+Olympia,+WA+98516"
    },
    {
        "id": "25",
        "name": "Renton Recycling & Transfer Station",
        "latitude": 47.484912,
        "longitude": -122.177990,
        "address": "3021 NE 4th St, Renton, WA 98056",
        "description": "Accepts clothing, boots, shoes, curtains, fabric, linens and blankets, stuffed animals, and throw rugs (no larger than 3 feet by 4 feet) for reuse and recycling.",
        "materials": ["Clothing", "Shoes", "Fabric", "Linens", "Stuffed Animals", "Throw Rugs"],
        "county": "King",
        "city": "Renton",
        "hours": "Mon-Fri: 7:30 AM - 5:00 PM; Sat & Sun: 8:30 AM - 5:30 PM",
        "contact": "1-206-477-4466",
        "website": "https://kingcounty.gov/renton",
        "directions": "https://www.google.com/maps/dir/?api=1&destination=3021+NE+4th+St,+Renton,+WA+98056",
        "notes": "Closed on Thanksgiving, Christmas, and New Year's Day. Drop-off only. No charge to recycle. No mattresses, box springs, carpet, or carpet padding."
    }
    ,
    {
        "id": "24",
        "name": "South Seattle Hazardous Waste Disposal",
        "latitude": 47.5592,
        "longitude": -122.3154,
        "address": "8100 2nd Ave S, Seattle, WA 98108",
        "description": "Provides hazardous waste disposal services, including chemicals, batteries, and paint.",
        "materials": ["Chemicals", "Batteries", "Paint"],
        "county": "King",
        "city": "Seattle",
        "hours": "Thu-Sat: 9:00 AM - 5:00 PM",
        "contact": "(206) 263-8899",
        "website": "https://www.seattle.gov/utilities/your-services/collection-and-disposal/hazardous-waste",
        "directions": "https://www.google.com/maps/dir/?api=1&destination=8100+2nd+Ave+S,+Seattle,+WA+98108"
    },
    {
        "id": "26",
        "name": "Auburn Hazardous Waste Disposal",
        "latitude": 47.3143,
        "longitude": -122.2217,
        "address": "1101 Outlet Collection Way, Auburn, WA 98001",
        "description": "Specializes in hazardous waste disposal for chemicals and flammable materials.",
        "materials": ["Hazardous Waste", "Flammable Materials"],
        "county": "King",
        "city": "Auburn",
        "hours": "Sat-Sun: 10:00 AM - 5:00 PM",
        "contact": "(253) 876-6800",
        "website": "https://www.kingcounty.gov/hazardous-waste/auburn",
        "directions": "https://www.google.com/maps/dir/?api=1&destination=1101+Outlet+Collection+Way,+Auburn,+WA+98001"
    },
    {
        "id": "27",
        "name": "Algona Transfer Station",
        "latitude": 47.286068,
        "longitude": -122.259020,
        "address": "35315 W Valley Hwy, Algona, WA 98001",
        "description": "The Algona Transfer Station provides garbage disposal and scrap metal recycling. It serves customers within King County's service area.",
        "materials": ["Garbage", "Scrap Metal"],
        "county": "King",
        "city": "Algona",
        "hours": "Mon-Fri: 7:00 AM - 4:30 PM; Sat-Sun: 8:30 AM - 5:30 PM",
        "contact": "(206) 477-4466",
        "website": "https://kingcounty.gov/en/dept/dnrp/waste-services/garbage-recycling-compost/solid-waste-facilities/algona",
        "directions": "https://www.google.com/maps/dir/?api=1&destination=35315+W+Valley+Hwy,+Algona,+WA+98001"
    },
    {
        "id": "28",
        "name": "Bow Lake Recycling & Transfer Station",
        "latitude": 47.435125,
        "longitude": -122.268408,
        "address": "18800 Orillia Rd S, Tukwila, WA 98188",
        "description": "Provides recycling services and garbage disposal. Accepts a variety of recyclables, including air conditioners, heat pumps, and other appliances with refrigerants.",
        "materials": ["Air Conditioners", "Heat Pumps", "Appliances", "Scrap Metal", "Plastic", "Glass", "Metal"],
        "county": "King",
        "city": "Tukwila",
        "hours": "Mon-Thu: 24 hours; Fri: 12 a.m. - 11:30 p.m.; Sat-Sun: 8:30 a.m. - 5:30 p.m. (Recycling area hours: Mon-Fri 6 a.m. - 8 p.m.; Sat-Sun: 8:30 a.m. - 5:30 p.m.)",
        "contact": "(206) 477-4466",
        "website": "https://kingcounty.gov/en/dept/dnrp/waste-services/garbage-recycling-compost/solid-waste-facilities/bow",
        "directions": "https://www.google.com/maps/dir/?api=1&destination=18800+Orillia+Rd+S,+Tukwila,+WA+98188"
    },
    {
        "id": "29",
        "name": "Houghton Transfer Station",
        "latitude": 47.6583,
        "longitude": -122.1836,
        "address": "11724 NE 60th St, Kirkland, WA 98033",
        "description": "Accepts clothing, shoes, fabrics, linens, and small rugs for reuse and recycling. Items must not be wet, mildewed, or contaminated. Singles of paired items are accepted.",
        "materials": ["Clothing", "Shoes", "Fabric", "Linens", "Stuffed Animals", "Throw Rugs"],
        "county": "King",
        "city": "Kirkland",
        "hours": "Mon-Fri: 8:00 AM - 5:30 PM; Sat-Sun: 8:30 AM - 5:30 PM",
        "contact": "(206) 477-4466",
        "website": "https://kingcounty.gov/houghton",
        "directions": "https://www.google.com/maps/dir/?api=1&destination=11724+NE+60th+St,+Kirkland,+WA+98033",
        "notes": "Restrictions: No mattresses, box springs, carpet, or carpet padding. Place items in the designated box in the recycle area. No charge to recycle."
    },
    {
        "id": "30",
        "name": "Total Reclaim",
        "latitude": 47.404590,
        "longitude": -122.245286,
        "address": "7021 South 220th St, Kent, WA 98032",
        "description": "Accepts a wide range of recyclable materials, helping customers comply with hazardous material handling laws.",
        "materials": ["Electronics", "Appliances", "Light Bulbs", "Batteries", "Refrigerants"],
        "county": "King",
        "city": "Kent",
        "hours": "Mon-Fri: 7:00 AM - 3:00 PM (Recycling Drop-offs & Pickups)",
        "contact": "(206) 343-7443",
        "website": "https://www.totalreclaim.com/",
        "directions": "https://www.google.com/maps/dir/?api=1&destination=7021+South+220th+St,+Kent,+WA+98032",
        "notes": "Pickup fees apply. Main office hours are Mon-Fri: 8:00 AM - 4:30 PM."
    },
    {
        "id": "31",
        "name": "Kitsap County Household Hazardous Waste Facility",
        "latitude": 47.5204,
        "longitude": -122.7212,
        "address": "5551 SW Imperial Way, Bremerton, WA 98312",
        "description": "Accepts household hazardous waste such as paints, chemicals, batteries, and fluorescent lights from Kitsap County residents.",
        "materials": ["Paints", "Chemicals", "Batteries", "Fluorescent Lights"],
        "county": "Kitsap",
        "city": "Bremerton",
        "hours": "Thu-Sat: 10:00 AM - 4:00 PM",
        "contact": "(360) 337-5777",
        "website": "https://www.kitsapgov.com/pw/Pages/HHWFacility.aspx",
        "directions": "https://www.google.com/maps/dir/?api=1&destination=5551+SW+Imperial+Way,+Bremerton,+WA+98312",
        "notes": "Open to Kitsap County residents only. No charge for household hazardous waste disposal."
    },
    {
        "id": "32",
        "name": "Airport Road Recycling & Transfer Station",
        "latitude": 47.9075,
        "longitude": -122.2426,
        "address": "10700 Minuteman Dr, Everett, WA 98204",
        "description": "Accepts garbage, recycling, yard waste, appliances, and limited hazardous waste from Snohomish County residents.",
        "materials": ["Garbage", "Recycling", "Yard Waste", "Appliances", "Limited Hazardous Waste"],
        "county": "Snohomish",
        "city": "Everett",
        "hours": "Mon-Fri: 7:00 AM - 5:00 PM; Sat-Sun: 8:00 AM - 4:00 PM",
        "contact": "(425) 388-3425",
        "website": "https://snohomishcountywa.gov/465/Airport-Road",
        "directions": "https://www.google.com/maps/dir/?api=1&destination=10700+Minuteman+Dr,+Everett,+WA+98204",
        "notes": "Closed on major holidays. Fees may apply for certain items."
    },
    {
        "id": "33",
        "name": "Styro Recycle",
        "latitude": 47.389585,
        "longitude": -122.248410,
        "address": "23418 68th Ave S, Kent, WA 98032",
        "description": "Specializes in recycling Styrofoam materials like EPS foam packaging and coolers.",
        "materials": ["Styrofoam", "EPS Foam", "Polystyrene"],
        "county": "King",
        "city": "Kent",
        "hours": "Mon-Fri: 9:00 AM - 5:00 PM; Sat: 9:00 AM - 2:00 PM",
        "contact": "(253) 838-9555",
        "website": "https://styrorecycle.com/",
        "directions": "https://www.google.com/maps/dir/?api=1&destination=23418+68th+Ave+S,+Kent,+WA+98032",
        "notes": "Accepts clean, dry Styrofoam materials. No food containers or packing peanuts."
    },
    {
        "id": "34",
        "name": "Thurston County Waste and Recovery Center",
        "latitude": 47.073353,
        "longitude": -122.775026,
        "address": "2420 Hogum Bay Road NE, Lacey, WA 98516",
        "description": "One-stop location for disposing of garbage, recyclables, yard waste, and household hazardous waste.",
        "materials": ["Garbage", "Recycling", "Yard Waste", "Household Hazardous Waste"],
        "county": "Thurston",
        "city": "Lacey",
        "hours": "Daily: 7:00 AM - 5:00 PM",
        "contact": "(360) 786-5494",
        "website": "https://www.thurstoncountywa.gov/departments/public-works/solid-waste",
        "directions": "https://www.google.com/maps/dir/?api=1&destination=2420+Hogum+Bay+Road+NE,+Lacey,+WA+98516"
    },
    {
        "id": "35",
        "name": "Friendly Earth",
        "latitude": 47.5926,
        "longitude": -122.3331,
        "address": "1560 1st Ave S, Seattle, WA 98134",
        "description": "Specializes in recycling electronic waste, including computers, monitors, and other electronics.",
        "materials": ["Electronics", "Computers", "Monitors", "E-waste"],
        "county": "King",
        "city": "Seattle",
        "hours": "Mon-Fri: 9:00 AM - 5:00 PM; Sat: 10:00 AM - 2:00 PM",
        "contact": "(206) 657-8373",
        "website": "https://www.friendlyearth.org/",
        "directions": "https://www.google.com/maps/dir/?api=1&destination=1560+1st+Ave+S,+Seattle,+WA+98134"
    },
    {
        "id": "36",
        "name": "Re-PC Recycled Computers",
        "latitude": 47.5897,
        "longitude": -122.3259,
        "address": "1565 6th Ave S, Seattle, WA 98134",
        "description": "Accepts computers, monitors, printers, and other electronics for recycling or refurbishment.",
        "materials": ["Computers", "Monitors", "Printers", "Electronics"],
        "county": "King",
        "city": "Seattle",
        "hours": "Mon-Sat: 9:30 AM - 6:00 PM; Sun: 11:00 AM - 5:00 PM",
        "contact": "(206) 623-9151",
        "website": "https://www.repc.com/",
        "directions": "https://www.google.com/maps/dir/?api=1&destination=1565+6th+Ave+S,+Seattle,+WA+98134"
    },
    {
        "id": "37",
        "name": "Re-PC Recycled Computers - Southcenter",
        "latitude": 47.4554,
        "longitude": -122.2530,
        "address": "600 Andover Park East, Tukwila, WA 98188",
        "description": "Specializes in recycling and refurbishing computers, monitors, printers, and other electronics. Offers a wide selection of used computer equipment and parts.",
        "materials": ["Computers", "Monitors", "Printers", "Electronics"],
        "county": "King",
        "city": "Tukwila",
        "hours": "Mon-Sat: 10:00 AM - 7:00 PM",
        "contact": "(206) 575-8737",
        "website": "https://www.repc.com/",
        "directions": "https://www.google.com/maps/dir/?api=1&destination=600+Andover+Park+East,+Tukwila,+WA+98188",
        "notes": "Offers recycling services and sells used computer equipment. No computer museum at this location."
    },
    {
        "id": "38",
        "name": "Pacific Iron & Metal",
        "latitude": 47.5932,
        "longitude": -122.3215,
        "address": "2230 4th Ave S, Seattle, WA 98134",
        "description": "Accepts ferrous and non-ferrous metals for recycling from both commercial and residential customers.",
        "materials": ["Aluminum", "Copper", "Brass", "Stainless Steel", "Iron"],
        "county": "King",
        "city": "Seattle",
        "hours": "Mon-Fri: 8:00 AM - 5:00 PM; Sat: 8:00 AM - 12:00 PM",
        "contact": "(206) 628-6232",
        "website": "https://www.pacificiron.com/",
        "directions": "https://www.google.com/maps/dir/?api=1&destination=2230+4th+Ave+S,+Seattle,+WA+98134"
    },
    {
        "id": "39",
        "name": "West Seattle Recycling",
        "latitude": 47.5697,
        "longitude": -122.3542,
        "address": "3881 16th Ave SW, Seattle, WA 98106",
        "description": "Accepts a variety of recyclable materials from the public, including metals, paper, electronics, glass, and plastics.",
        "materials": ["Metal", "Paper", "Electronics", "Glass", "Plastic"],
        "county": "King",
        "city": "Seattle",
        "hours": "Mon-Fri: 9:00 AM - 5:30 PM; Sat: 8:30 AM - 5:00 PM",
        "contact": "(206) 935-4255",
        "website": "https://www.westseattlerecycling.com/",
        "directions": "https://www.google.com/maps/dir/?api=1&destination=3881+16th+Ave+SW,+Seattle,+WA+98106"
    },
    {
        "id": "40",
        "name": "Southwest Recycling & Transfer Station",
        "latitude": 47.804766,
        "longitude": -122.314816,
        "address": "21311 61st Pl W, Mountlake Terrace, WA 98043",
        "description": "Accepts garbage, recycling, yard waste, appliances, and limited household hazardous waste from Snohomish County residents.",
        "materials": ["Garbage", "Recycling", "Yard Waste", "Appliances", "Limited Hazardous Waste"],
        "county": "Snohomish",
        "city": "Mountlake Terrace",
        "hours": "Mon-Fri: 7:00 AM - 5:00 PM; Sat-Sun: 8:00 AM - 4:00 PM",
        "contact": "(425) 388-3425",
        "website": "https://snohomishcountywa.gov/465/Southwest-Transfer-Station",
        "directions": "https://www.google.com/maps/dir/?api=1&destination=21311+61st+Pl+W,+Mountlake+Terrace,+WA+98043",
        "notes": "Closed on major holidays. Fees may apply for certain items."
    }  
]
