[
    {
        "id": "1",
        "name": "North Transfer Station",
        "latitude": 47.6498,
        "longitude": -122.3419,
        "address": "1350 N 34th St, Seattle, WA 98103",
        "description": "Accepts a variety of recyclables including metals, plastics, and paper.",
        "materials": ["Metal", "Plastic", "Paper"],
        "county": "King",
        "city": "Seattle",
        "hours": "Mon-Sun: 8:00 AM - 5:30 PM",
        "contact": "(206) 263-8899",
        "website": "https://www.seattle.gov/utilities/your-services/collection-and-disposal/transfer-stations/north-station",
        "directions": "https://www.google.com/maps/dir/?api=1&destination=1350+N+34th+St,+Seattle,+WA+98103"
    },
    {
        "id": "2",
        "name": "South Transfer Station",
        "latitude": 47.5303,
        "longitude": -122.3308,
        "address": "130 S Kenyon St, Seattle, WA 98108",
        "description": "Offers recycling services for plastics, glass, and electronic waste.",
        "materials": ["Plastic", "Glass", "E-waste"],
        "county": "King",
        "city": "Seattle",
        "hours": "Mon-Sun: 8:00 AM - 5:30 PM",
        "contact": "(206) 684-8400",
        "website": "https://www.seattle.gov/utilities/your-services/collection-and-disposal/transfer-stations/south-station",
        "directions": "https://www.google.com/maps/dir/?api=1&destination=130+S+Kenyon+St,+Seattle,+WA+98108"
    },
    {
        "id": "3",
        "name": "North Household Hazardous Waste Facility",
        "latitude": 47.7193,
        "longitude": -122.3419,
        "address": "12550 Stone Ave N, Seattle, WA 98133",
        "description": "Collection site for hazardous materials like chemicals, batteries, and paint.",
        "materials": ["Batteries", "Chemicals", "Paint"],
        "county": "King",
        "city": "Seattle",
        "hours": "Wed-Sat: 9:00 AM - 5:00 PM",
        "contact": "(206) 296-4692",
        "website": "https://www.hazwastehelp.org/",
        "directions": "https://www.google.com/maps/dir/?api=1&destination=12550+Stone+Ave+N,+Seattle,+WA+98133"
    },
    {
        "id": "4",
        "name": "Recology Store SoMa",
        "latitude": 47.5986,
        "longitude": -122.3327,
        "address": "117 S Main St, Seattle, WA 98104",
        "description": "Drop-off center for general recyclables, including cardboard and aluminum cans.",
        "materials": ["Cardboard", "Aluminum", "Plastic"],
        "county": "King",
        "city": "Seattle",
        "hours": "Mon-Sat: 10:00 AM - 6:00 PM",
        "contact": "(206) 859-6700",
        "website": "https://www.recology.com/store/soma/",
        "directions": "https://www.google.com/maps/dir/?api=1&destination=117+S+Main+St,+Seattle,+WA+98104"
    },
    {
        "id": "11",
        "name": "Lynnwood Recycling Center",
        "latitude": 47.8277,
        "longitude": -122.3051,
        "address": "5532 196th St SW, Lynnwood, WA 98036",
        "description": "Specializes in glass, metal, and general recycling services.",
        "materials": ["Glass", "Metal", "Plastic"],
        "county": "Snohomish",
        "city": "Lynnwood",
        "hours": "Mon-Fri: 8:00 AM - 5:00 PM; Sat: 9:00 AM - 3:00 PM",
        "contact": "(425) 778-0188",
        "website": "https://www.lynnwoodrecycling.com/",
        "directions": "https://www.google.com/maps/dir/?api=1&destination=5532+196th+St+SW,+Lynnwood,+WA+98036"
    },
    {
        "id": "12",
        "name": "Puyallup Recycle Center",
        "latitude": 47.1854,
        "longitude": -122.2929,
        "address": "425 E Pioneer Ave, Puyallup, WA 98372",
        "description": "Focuses on e-waste and textile recycling.",
        "materials": ["E-waste", "Textiles"],
        "county": "Pierce",
        "city": "Puyallup",
        "hours": "Tue-Sat: 9:00 AM - 5:00 PM",
        "contact": "(253) 864-4972",
        "website": "https://puyalluprecycling.org/",
        "directions": "https://www.google.com/maps/dir/?api=1&destination=425+E+Pioneer+Ave,+Puyallup,+WA+98372"
    },
    {
        "id": "13",
        "name": "Tacoma Recovery and Recycling",
        "latitude": 47.2529,
        "longitude": -122.4443,
        "address": "3510 S Mullen St, Tacoma, WA 98409",
        "description": "Offers full-service recycling for yard debris, glass, and appliances.",
        "materials": ["Yard Waste", "Glass", "Appliances"],
        "county": "Pierce",
        "city": "Tacoma",
        "hours": "Mon-Sun: 7:30 AM - 5:30 PM",
        "contact": "(253) 591-5418",
        "website": "https://tacomarecyclingcenter.org/",
        "directions": "https://www.google.com/maps/dir/?api=1&destination=3510+S+Mullen+St,+Tacoma,+WA+98409"
    },
    {
        "id": "14",
        "name": "Everett Hazardous Waste Collection",
        "latitude": 47.9784,
        "longitude": -122.2021,
        "address": "1018 33rd St, Everett, WA 98201",
        "description": "Handles hazardous waste like chemicals, electronics, and paint.",
        "materials": ["Chemicals", "Electronics", "Paint"],
        "county": "Snohomish",
        "city": "Everett",
        "hours": "Wed-Sat: 8:00 AM - 4:30 PM",
        "contact": "(425) 388-6050",
        "website": "https://www.everettwa.gov/hazardous-waste",
        "directions": "https://www.google.com/maps/dir/?api=1&destination=1018+33rd+St,+Everett,+WA+98201"
    },
    {
        "id": "15",
        "name": "Factoria Recycling & Transfer Station",
        "latitude": 47.5786,
        "longitude": -122.1496,
        "address": "13800 SE 32nd St, Bellevue, WA 98005",
        "description": "Provides recycling services, hazardous waste disposal, and garbage drop-off.",
        "materials": ["Metal", "Plastic", "E-waste", "Hazardous Waste"],
        "county": "King",
        "city": "Bellevue",
        "hours": "Mon-Fri: 6:30 AM - 4:00 PM; Sat-Sun: 8:30 AM - 5:30 PM",
        "contact": "(206) 477-4466",
        "website": "https://kingcounty.gov/factoria",
        "directions": "https://www.google.com/maps/dir/?api=1&destination=13800+SE+32nd+St,+Bellevue,+WA+98005"
    },
    {
        "id": "16",
        "name": "Shoreline Recycling & Transfer Station",
        "latitude": 47.7529,
        "longitude": -122.3302,
        "address": "2300 N 165th St, Shoreline, WA 98133",
        "description": "Accepts a variety of recyclables including yard debris, metal, and cardboard.",
        "materials": ["Yard Waste", "Metal", "Cardboard", "Plastic"],
        "county": "King",
        "city": "Shoreline",
        "hours": "Mon-Sun: 7:00 AM - 5:30 PM",
        "contact": "(206) 477-4466",
        "website": "https://kingcounty.gov/shoreline",
        "directions": "https://www.google.com/maps/dir/?api=1&destination=2300+N+165th+St,+Shoreline,+WA+98133"
    },
    {
        "id": "17",
        "name": "Bow Lake Recycling & Transfer Station",
        "latitude": 47.4485,
        "longitude": -122.2626,
        "address": "18800 Orillia Rd S, Tukwila, WA 98188",
        "description": "Recycling services include metals, yard waste, and electronics.",
        "materials": ["Metal", "Yard Waste", "E-waste", "Plastic"],
        "county": "King",
        "city": "Tukwila",
        "hours": "Mon-Sun: 7:00 AM - 5:00 PM",
        "contact": "(206) 477-4466",
        "website": "https://kingcounty.gov/bowlake",
        "directions": "https://www.google.com/maps/dir/?api=1&destination=18800+Orillia+Rd+S,+Tukwila,+WA+98188"
    },
    {
        "id": "18",
        "name": "Vashon Recycling & Transfer Station",
        "latitude": 47.4284,
        "longitude": -122.4634,
        "address": "18900 Westside Hwy SW, Vashon, WA 98070",
        "description": "Specializes in general recycling and hazardous waste disposal.",
        "materials": ["Metal", "Glass", "Hazardous Waste", "Plastic"],
        "county": "King",
        "city": "Vashon",
        "hours": "Tue-Sun: 9:00 AM - 5:00 PM",
        "contact": "(206) 477-4466",
        "website": "https://kingcounty.gov/vashon",
        "directions": "https://www.google.com/maps/dir/?api=1&destination=18900+Westside+Hwy+SW,+Vashon,+WA+98070"
    },
    {
        "id": "19",
        "name": "Enumclaw Recycling & Transfer Station",
        "latitude": 47.2046,
        "longitude": -122.0354,
        "address": "1650 Battersby Ave E, Enumclaw, WA 98022",
        "description": "Provides drop-off services for yard waste, cardboard, and household items.",
        "materials": ["Yard Waste", "Cardboard", "Household Items", "Glass"],
        "county": "King",
        "city": "Enumclaw",
        "hours": "Mon-Sun: 9:00 AM - 5:00 PM",
        "contact": "(206) 477-4466",
        "website": "https://kingcounty.gov/enumclaw",
        "directions": "https://www.google.com/maps/dir/?api=1&destination=1650+Battersby+Ave+E,+Enumclaw,+WA+98022"
    },
    {
        "id": "20",
        "name": "Murrey's Disposal Recycling Facility",
        "latitude": 47.2448,
        "longitude": -122.3592,
        "address": "402 Valley Ave NE, Puyallup, WA 98372",
        "description": "Offers collection, transfer, and recycling services for residential and commercial customers.",
        "materials": ["Metal", "Plastic", "Paper", "Yard Waste"],
        "county": "Pierce",
        "city": "Puyallup",
        "hours": "Mon-Fri: 8:00 AM - 5:00 PM",
        "contact": "(253) 414-0345",
        "website": "https://www.murreysdisposal.com/",
        "directions": "https://www.google.com/maps/dir/?api=1&destination=402+Valley+Ave+NE,+Puyallup,+WA+98372"
    },
    {
        "id": "21",
        "name": "Puget Sound Recycling",
        "latitude": 47.2483,
        "longitude": -122.4697,
        "address": "2225 112th St S, Tacoma, WA 98444",
        "description": "Specializes in metal recycling, accepting aluminum, brass, copper, scrap iron, and steel.",
        "materials": ["Aluminum", "Brass", "Copper", "Scrap Iron", "Steel"],
        "county": "Pierce",
        "city": "Tacoma",
        "hours": "Mon-Sat: 8:00 AM - 5:00 PM",
        "contact": "(253) 536-2260",
        "website": "https://www.psrecycle.com/",
        "directions": "https://www.google.com/maps/dir/?api=1&destination=2225+112th+St+S,+Tacoma,+WA+98444"
    },
    {
        "id": "22",
        "name": "Gilliardi Logging & Construction Recycling Facility",
        "latitude": 47.0417,
        "longitude": -122.8958,
        "address": "9305 Johnson Point Rd NE, Olympia, WA 98516",
        "description": "Recycles land clearing debris, including concrete, asphalt, rock, brush, and wood.",
        "materials": ["Concrete", "Asphalt", "Rock", "Brush", "Wood"],
        "county": "Thurston",
        "city": "Olympia",
        "hours": "Mon-Fri: 7:30 AM - 4:00 PM",
        "contact": "(360) 456-5274",
        "website": "https://www.gilliardi.com/",
        "directions": "https://www.google.com/maps/dir/?api=1&destination=9305+Johnson+Point+Rd+NE,+Olympia,+WA+98516"
    },
    {
        "id": "23",
        "name": "Republic Services Recycling Learning Center",
        "latitude": 47.5952,
        "longitude": -122.3316,
        "address": "1900 Occidental Ave S, Seattle, WA 98134",
        "description": "Educational tours on recycling processes and best practices.",
        "materials": ["Metal", "Plastic", "Paper", "Cardboard"],
        "county": "King",
        "city": "Seattle",
        "hours": "Tue-Sat: 9:00 AM - 4:00 PM",
        "contact": "(206) 332-7700",
        "website": "https://www.republicservices.com/",
        "directions": "https://www.google.com/maps/dir/?api=1&destination=1900+Occidental+Ave+S,+Seattle,+WA+98134"
    }
]
